$GPGLL,1028.6987,N,06635.7010,W,223036.241,A*2C
$GPGGA,223036.24,1028.6987,N,06635.7010,W,1,03,27.5,00370,M,,,,*0F
$GPRMC,223036.24,A,1028.6987,N,06635.7010,W,00.0,000.0,181116,13,W*41
$GPGSA,A,2,25,32,10,,,,,,,,,,27.5,27.5,*1A
$GPGSV,3,1,10,18,76,099,,10,62,346,36,25,59,097,44,31,40,258,*7F
$GPGSV,3,2,10,12,29,055,,21,29,188,,32,29,338,38,14,17,312,*72
$GPGSV,3,3,10,20,16,138,,26,10,204,,120,30,098,,122,71,129,*78
$PMGNST,05.40,2,T,566,07.6,+04776,10*44
$GPGLL,1028.6992,N,06635.7003,W,223037.265,A*2D
$GPGGA,223037.26,1028.6992,N,06635.7003,W,1,03,27.9,00370,M,,,,*06
$GPRMC,223037.26,A,1028.6992,N,06635.7003,W,00.0,000.0,181116,13,W*44
$GPGSA,A,2,25,32,10,,,,,,,,,,27.9,27.9,*1A
$GPGSV,3,1,10,18,76,099,,10,62,346,38,25,59,097,44,31,40,258,*71
$GPGSV,3,2,10,12,29,055,,21,29,188,,32,29,338,39,14,17,312,*73
$GPGSV,3,3,10,20,16,138,,26,10,204,,120,30,098,,122,71,129,*78
$PMGNST,05.40,2,T,561,07.6,+04785,00*4E
$GPGLL,1028.6988,N,06635.7004,W,223038.250,A*28
$GPGGA,223038.25,1028.6988,N,06635.7004,W,1,03,27.8,00370,M,,,,*07
$GPRMC,223038.25,A,1028.6988,N,06635.7004,W,00.0,000.0,181116,13,W*44
$GPGSA,A,2,25,32,10,,,,,,,,,,27.8,27.8,*1A
$GPGSV,3,1,10,18,76,099,,10,62,346,38,25,59,097,44,31,40,258,*71
$GPGSV,3,2,10,12,29,055,,21,29,188,,32,29,338,39,14,17,312,*73
$GPGSV,3,3,10,20,16,138,,26,10,204,,120,30,098,,122,71,129,*78
$PMGNST,05.40,2,T,561,07.6,+04788,00*43
$GPGLL,1028.6988,N,06635.7004,W,223039.241,A*29
$GPGGA,223039.24,1028.6988,N,06635.7004,W,1,03,27.8,00370,M,,,,*07
$GPRMC,223039.24,A,1028.6988,N,06635.7004,W,00.0,000.0,181116,13,W*44
$GPGSA,A,2,25,32,10,,,,,,,,,,27.8,27.8,*1A
$GPGSV,3,1,10,18,76,099,,10,62,346,36,25,59,097,44,31,40,258,*7F
$GPGSV,3,2,10,12,29,055,,21,29,188,,32,29,338,38,14,17,312,*72
$GPGSV,3,3,10,20,16,138,,26,10,204,,120,30,098,,122,71,129,*78
$PMGNST,05.40,2,T,561,07.6,+04788,10*42
$GPGLL,1028.6987,N,06635.7002,W,223040.264,A*29
$GPGGA,223040.26,1028.6987,N,06635.7002,W,1,03,27.4,00370,M,,,,*0E
$GPRMC,223040.26,A,1028.6987,N,06635.7002,W,00.0,000.0,181116,13,W*41
$GPGSA,A,2,25,32,10,,,,,,,,,,27.4,27.4,*1A
$GPGSV,3,1,10,18,76,099,,10,62,346,38,25,59,097,44,31,40,258,*71
$GPGSV,3,2,10,12,29,055,,21,29,188,,32,29,338,39,14,17,312,*73
$GPGSV,3,3,10,20,16,138,,26,10,204,,120,30,098,,122,71,129,*78
$PMGNST,05.40,2,T,561,07.6,+04792,00*48
$GPGLL,1028.6980,N,06635.7008,W,223041.251,A*23
$GPGGA,223041.25,1028.6980,N,06635.7008,W,1,03,27.8,00370,M,,,,*0D
$GPRMC,223041.25,A,1028.6980,N,06635.7008,W,00.0,000.0,181116,13,W*4E
$GPGSA,A,2,25,32,10,,,,,,,,,,27.8,27.8,*1A
$GPGSV,3,1,10,18,76,099,,10,62,346,38,25,59,097,44,31,40,258,*71
$GPGSV,3,2,10,12,29,055,,21,29,188,,32,29,338,38,14,17,312,*72
$GPGSV,3,3,10,20,16,138,,26,10,204,,120,30,098,,122,71,129,*78
$PMGNST,05.40,2,T,561,07.6,+04794,00*4E
$GPGLL,1028.6981,N,06635.7005,W,223042.250,A*2D
$GPGGA,223042.25,1028.6981,N,06635.7005,W,1,03,27.3,00370,M,,,,*09
$GPRMC,223042.25,A,1028.6981,N,06635.7005,W,00.0,000.0,181116,13,W*41
$GPGSA,A,2,25,32,10,,,,,,,,,,27.3,27.3,*1A
$GPGSV,3,1,10,18,76,099,,10,62,346,38,25,59,097,44,31,40,258,*71
$GPGSV,3,2,10,12,29,055,,21,29,188,,32,29,338,39,14,17,312,*73
$GPGSV,3,3,10,20,16,138,,26,10,204,,120,30,098,,122,71,129,*78
$PMGNST,05.40,2,T,561,07.6,+04797,00*4D
$GPGLL,1028.6981,N,06635.7005,W,223043.241,A*2C
$GPGGA,223043.24,1028.6981,N,06635.7005,W,1,03,27.3,00370,M,,,,*09
$GPRMC,223043.24,A,1028.6981,N,06635.7005,W,00.0,000.0,181116,13,W*41
$GPGSA,A,2,25,32,10,,,,,,,,,,27.3,27.3,*1A
$GPGSV,3,1,10,18,76,099,,10,62,346,36,25,59,097,44,31,40,258,*7F
$GPGSV,3,2,10,12,29,055,,21,29,188,,32,29,338,38,14,17,312,*72
$GPGSV,3,3,10,20,16,138,,26,10,204,,120,30,098,,122,71,129,*78
$PMGNST,05.40,2,T,561,07.6,+04797,10*4C
$GPGLL,1028.6988,N,06635.6996,W,223044.251,A*21
$GPGGA,223044.25,1028.6988,N,06635.6996,W,1,03,27.7,00370,M,,,,*00
$GPRMC,223044.25,A,1028.6988,N,06635.6996,W,00.0,000.0,181116,13,W*4C
$GPGSA,A,2,25,32,10,,,,,,,,,,27.7,27.7,*1A
$GPGSV,3,1,10,18,76,099,,10,62,346,38,25,59,097,44,31,40,258,*71
$GPGSV,3,2,10,12,29,055,,21,29,188,,32,29,338,39,14,17,312,*73
$GPGSV,3,3,10,20,16,138,,26,10,204,,120,30,098,,122,71,129,*78
$PMGNST,05.40,2,T,561,07.6,+04801,00*4D
$GPGLL,1028.6988,N,06635.6996,W,223045.241,A*21
$GPGGA,223045.24,1028.6988,N,06635.6996,W,1,03,27.7,00370,M,,,,*00
$GPRMC,223045.24,A,1028.6988,N,06635.6996,W,00.0,000.0,181116,13,W*4C
$GPGSA,A,2,25,32,10,,,,,,,,,,27.7,27.7,*1A
$GPGSV,3,1,10,18,76,099,,10,62,346,36,25,59,097,42,31,40,258,*79
$GPGSV,3,2,10,12,29,055,,21,29,188,,32,29,338,36,14,17,312,*7C
$GPGSV,3,3,10,20,16,138,,26,10,204,,120,30,098,,122,71,129,*78
$PMGNST,05.40,2,T,561,07.6,+04801,10*4C
$GPGLL,1028.6988,N,06635.6996,W,223046.241,A*22
$GPGGA,223046.24,1028.6988,N,06635.6996,W,1,03,27.7,00370,M,,,,*03
$GPRMC,223046.24,A,1028.6988,N,06635.6996,W,00.0,000.0,181116,13,W*4F
$GPGSA,A,2,25,32,10,,,,,,,,,,27.7,27.7,*1A
$GPGSV,3,1,10,18,76,099,,10,62,346,36,25,59,097,44,31,40,258,*7F
$GPGSV,3,2,10,12,29,055,,21,29,188,,32,29,338,38,14,17,312,*72
$GPGSV,3,3,10,20,16,138,,26,10,204,,120,30,098,,122,71,129,*78
$PMGNST,05.40,2,T,555,07.5,+04801,10*48
$GPGLL,1028.6982,N,06635.7002,W,223047.252,A*2E
$GPGGA,223047.25,1028.6982,N,06635.7002,W,1,03,27.3,00370,M,,,,*08
$GPRMC,223047.25,A,1028.6982,N,06635.7002,W,00.0,000.0,181116,13,W*40
$GPGSA,A,2,25,32,10,,,,,,,,,,27.3,27.3,*1A
$GPGSV,3,1,10,18,76,099,,10,62,346,38,25,59,097,44,31,40,258,*71
$GPGSV,3,2,10,12,29,055,,21,29,188,,32,29,338,39,14,17,312,*73
$GPGSV,3,3,10,20,16,138,,26,10,204,,120,30,098,,122,71,129,*78
$PMGNST,05.40,2,T,555,07.5,+04808,00*40
$GPGLL,1028.6982,N,06635.7002,W,223048.241,A*23
$GPGGA,223048.24,1028.6982,N,06635.7002,W,1,03,27.3,00370,M,,,,*06
$GPRMC,223048.24,A,1028.6982,N,06635.7002,W,00.0,000.0,181116,13,W*4E
$GPGSA,A,2,25,32,10,,,,,,,,,,27.3,27.3,*1A
$GPGSV,3,1,10,18,76,099,,10,62,346,38,25,59,097,44,31,40,258,*71
$GPGSV,3,2,10,12,29,055,,21,29,188,,32,29,338,36,14,17,312,*7C
$GPGSV,3,3,10,20,16,138,,26,10,204,,120,30,098,,122,71,129,*78
$PMGNST,05.40,2,T,555,07.5,+04808,10*41
$GPGLL,1028.6982,N,06635.7002,W,223049.241,A*22
$GPGGA,223049.24,1028.6982,N,06635.7002,W,1,03,27.3,00370,M,,,,*07
$GPRMC,223049.24,A,1028.6982,N,06635.7002,W,00.0,000.0,181116,13,W*4F
$GPGSA,A,2,25,32,10,,,,,,,,,,27.3,27.3,*1A
$GPGSV,3,1,10,18,76,099,,10,62,346,36,25,59,097,43,31,40,258,*78
$GPGSV,3,2,10,12,29,055,,21,29,188,,32,29,338,38,14,17,312,*72
$GPGSV,3,3,10,20,16,138,,26,10,204,,120,30,098,,122,71,129,*78
$PMGNST,05.40,2,T,555,07.5,+04808,10*41
$GPGLL,1028.6982,N,06635.7002,W,223050.264,A*2D
$GPGGA,223050.26,1028.6982,N,06635.7002,W,1,03,27.3,00370,M,,,,*0D
$GPRMC,223050.26,A,1028.6982,N,06635.7002,W,00.0,000.0,181116,13,W*45
$GPGSA,A,2,25,32,10,,,,,,,,,,27.3,27.3,*1A
$GPGSV,3,1,10,18,76,099,,10,62,346,36,25,59,097,42,31,40,258,*79
$GPGSV,3,2,10,12,29,055,,21,29,188,,32,29,338,36,14,17,312,*7C
$GPGSV,3,3,10,20,16,138,,26,10,204,,120,30,098,,122,71,129,*78
$PMGNST,05.40,2,T,555,07.5,+04808,10*41
$GPGLL,1028.6982,N,06635.7002,W,223051.241,A*2B
$GPGGA,223051.24,1028.6982,N,06635.7002,W,1,03,27.3,00370,M,,,,*0E
$GPRMC,223051.24,A,1028.6982,N,06635.7002,W,00.0,000.0,181116,13,W*46
$GPGSA,A,2,25,32,10,,,,,,,,,,27.3,27.3,*1A
$GPGSV,3,1,10,18,76,099,,10,62,346,36,25,59,097,43,31,40,258,*78
$GPGSV,3,2,10,12,29,055,,21,29,188,,32,29,338,36,14,17,312,*7C
$GPGSV,3,3,10,20,16,138,,26,10,204,,120,30,098,,122,71,129,*78
$PMGNST,05.40,2,T,555,07.5,+04808,10*41
$GPGLL,1028.6982,N,06635.7002,W,223052.241,A*28
$GPGGA,223052.24,1028.6982,N,06635.7002,W,1,03,27.3,00370,M,,,,*0D
$GPRMC,223052.24,A,1028.6982,N,06635.7002,W,00.0,000.0,181116,13,W*45
$GPGSA,A,2,25,32,10,,,,,,,,,,27.3,27.3,*1A
$GPGSV,3,1,10,18,76,099,,10,62,346,36,25,59,097,38,31,40,258,*74
$GPGSV,3,2,10,12,29,055,,21,29,188,,32,29,338,36,14,17,312,*7C
$GPGSV,3,3,10,20,16,138,,26,10,204,,120,30,098,,122,71,129,*78
$PMGNST,05.40,2,T,555,07.5,+04808,10*41
$GPGLL,1028.7002,N,06635.6988,W,223053.263,A*23
$GPGGA,223053.26,1028.7002,N,06635.6988,W,1,03,25.2,00370,M,,,,*07
$GPRMC,223053.26,A,1028.7002,N,06635.6988,W,00.0,000.0,181116,13,W*4C
$GPGSA,A,2,10,32,25,,,,,,,,,,25.2,25.2,*1A
$GPGSV,3,1,10,18,76,099,,10,62,346,38,25,59,097,36,31,40,258,*74
$GPGSV,3,2,10,12,29,055,,21,29,188,,32,29,338,36,14,17,312,*7C
$GPGSV,3,3,10,20,16,138,,26,10,204,,120,30,098,,122,71,129,*78
$PMGNST,05.40,2,T,555,07.5,+04821,00*4B
$GPGLL,1028.7002,N,06635.6988,W,223054.214,A*24
$GPGGA,223054.21,1028.7002,N,06635.6988,W,1,03,25.2,00370,M,,,,*07
$GPRMC,223054.21,A,1028.7002,N,06635.6988,W,00.0,000.0,181116,13,W*4C
$GPGSA,A,2,10,32,25,,,,,,,,,,25.2,25.2,*1A
$GPGSV,3,1,10,18,76,099,,10,62,346,36,25,59,097,36,31,40,258,*7A
$GPGSV,3,2,10,12,29,055,,21,29,188,,32,29,338,36,14,17,312,*7C
$GPGSV,3,3,10,20,16,138,,26,10,204,,120,30,098,,122,71,129,*78
$PMGNST,05.40,2,T,555,07.5,+04821,23*4A
$GPGLL,1028.7002,N,06635.6988,W,223055.315,A*25
$GPGGA,223055.32,1028.7002,N,06635.6988,W,1,03,25.2,00370,M,,,,*04
$GPRMC,223055.32,A,1028.7002,N,06635.6988,W,00.0,000.0,181116,13,W*4F
$GPGSA,A,2,10,32,25,,,,,,,,,,25.2,25.2,*1A
$GPGSV,3,1,10,18,76,099,,10,62,346,36,25,59,097,,31,40,258,*7F
$GPGSV,3,2,10,12,29,055,,21,29,188,,32,29,338,,14,17,312,*79
$GPGSV,3,3,10,20,16,138,,26,10,204,,120,30,098,,122,71,129,*78
$PMGNST,05.40,2,T,549,07.4,+04821,23*46
$GPGLL,1028.7002,N,06635.6988,W,223056.315,A*26
$GPGGA,223056.32,1028.7002,N,06635.6988,W,1,03,25.2,00370,M,,,,*07
$GPRMC,223056.32,A,1028.7002,N,06635.6988,W,00.0,000.0,181116,13,W*4C
$GPGSA,A,2,10,32,25,,,,,,,,,,25.2,25.2,*1A
$GPGSV,3,1,10,18,76,099,,10,62,346,36,25,59,097,,31,40,258,*7F
$GPGSV,3,2,10,12,29,055,,21,29,188,,32,29,338,,14,17,312,*79
$GPGSV,3,3,10,20,16,138,,26,10,204,,120,30,098,,122,71,129,*78
$PMGNST,05.40,2,T,549,07.4,+04821,23*46
$GPGLL,1028.7002,N,06635.6988,W,223057.315,A*27
$GPGGA,223057.32,1028.7002,N,06635.6988,W,1,03,25.2,00370,M,,,,*06
$GPRMC,223057.32,A,1028.7002,N,06635.6988,W,00.0,000.0,181116,13,W*4D
$GPGSA,A,2,10,32,25,,,,,,,,,,25.2,25.2,*1A
$GPGSV,3,1,10,18,76,099,,10,62,346,36,25,59,097,,31,40,258,*7F
$GPGSV,3,2,10,12,29,055,,21,29,188,,32,29,338,,14,17,312,*79
$GPGSV,3,3,10,20,16,138,,26,10,204,,120,30,098,,122,71,129,*78
$PMGNST,05.40,2,T,549,07.4,+04821,23*46
$GPGLL,1028.7002,N,06635.6988,W,223058.315,A*28
$GPGGA,223058.32,1028.7002,N,06635.6988,W,1,03,25.2,00370,M,,,,*09
$GPRMC,223058.32,A,1028.7002,N,06635.6988,W,00.0,000.0,181116,13,W*42
$GPGSA,A,2,10,32,25,,,,,,,,,,25.2,25.2,*1A
$GPGSV,3,1,10,18,76,099,,10,62,346,36,25,59,097,,31,40,258,*7F
$GPGSV,3,2,10,12,29,055,,21,29,188,,32,29,338,,14,17,312,*79
$GPGSV,3,3,10,20,16,138,,26,10,204,,120,30,098,,122,71,129,*78
$PMGNST,05.40,2,T,549,07.4,+04821,23*46
$GPGLL,1028.7002,N,06635.6988,W,223059.315,A*29
$GPGGA,223059.32,1028.7002,N,06635.6988,W,1,03,25.2,00370,M,,,,*08
$GPRMC,223059.32,A,1028.7002,N,06635.6988,W,00.0,000.0,181116,13,W*43
$GPGSA,A,2,10,32,25,,,,,,,,,,25.2,25.2,*1A
$GPGSV,3,1,10,18,76,099,,10,62,346,36,25,59,097,,31,40,258,*7F
$GPGSV,3,2,10,12,29,055,,21,29,188,,32,29,338,,14,17,312,*79
$GPGSV,3,3,10,20,16,138,,26,10,204,,120,30,098,,122,71,129,*78
$PMGNST,05.40,2,T,549,07.4,+04821,23*46
$GPGLL,1028.7002,N,06635.6988,W,223059.315,A*29
$GPGGA,223059.32,1028.7002,N,06635.6988,W,1,03,25.2,00370,M,,,,*08
$GPRMC,223059.32,A,1028.7002,N,06635.6988,W,00.0,000.0,181116,13,W*43
$GPGSA,A,2,10,32,25,,,,,,,,,,25.2,25.2,*1A
$GPGSV,3,1,10,18,76,099,,10,62,346,36,25,59,097,36,31,40,258,*7A
$GPGSV,3,2,10,12,29,055,,21,29,188,,32,29,338,,14,17,312,*79
$GPGSV,3,3,10,20,16,138,,26,10,204,,120,30,098,,122,71,129,*78
$PMGNST,05.40,2,T,549,07.4,+04794,23*47
$GPGLL,1028.7002,N,06635.6988,W,223059.315,A*29
$GPGGA,223059.32,1028.7002,N,06635.6988,W,1,03,25.2,00370,M,,,,*08
$GPRMC,223059.32,A,1028.7002,N,06635.6988,W,00.0,000.0,181116,13,W*43
$GPGSA,A,2,10,32,25,,,,,,,,,,25.2,25.2,*1A
$GPGSV,3,1,10,18,76,099,,10,62,346,36,25,59,097,,31,40,258,*7F
$GPGSV,3,2,10,12,29,055,,21,29,188,,32,29,338,,14,17,312,*79
$GPGSV,3,3,10,20,16,138,,26,10,204,,120,30,098,,122,71,129,*78
$PMGNST,05.40,2,T,544,07.3,+04794,23*4D
$GPGLL,1028.6978,N,06635.7012,W,223102.250,A*28
$GPGGA,223102.25,1028.6978,N,06635.7012,W,1,03,24.6,00370,M,,,,*0A
$GPRMC,223102.25,A,1028.6978,N,06635.7012,W,00.0,000.0,181116,13,W*44
$GPGSA,A,2,10,32,25,,,,,,,,,,24.6,24.6,*1A
$GPGSV,3,1,10,18,76,099,,10,62,346,38,25,59,097,36,31,40,258,*74
$GPGSV,3,2,10,12,29,055,,21,29,188,,32,29,338,36,14,17,312,*7C
$GPGSV,3,3,10,20,16,138,,26,10,204,,120,30,098,,122,71,129,*78
$PMGNST,05.40,2,T,544,07.3,+04840,00*4A
$GPGLL,1028.6977,N,06635.7014,W,223103.259,A*29
$GPGGA,223103.26,1028.6977,N,06635.7014,W,1,03,24.1,00370,M,,,,*06
$GPRMC,223103.26,A,1028.6977,N,06635.7014,W,00.0,000.0,181116,13,W*4F
$GPGSA,A,2,10,32,25,,,,,,,,,,24.1,24.1,*1A
$GPGSV,3,1,10,18,76,099,,10,62,346,39,25,59,097,36,31,40,258,*75
$GPGSV,3,2,10,12,29,055,,21,29,188,,32,29,338,36,14,17,312,*7C
$GPGSV,3,3,10,20,16,138,,26,10,204,,120,30,098,,122,71,129,*78
$PMGNST,05.40,2,T,544,07.3,+04843,00*49
$GPGLL,1028.6977,N,06635.7014,W,223104.214,A*27
$GPGGA,223104.21,1028.6977,N,06635.7014,W,1,03,24.1,00370,M,,,,*06
$GPRMC,223104.21,A,1028.6977,N,06635.7014,W,00.0,000.0,181116,13,W*4F
$GPGSA,A,2,10,32,25,,,,,,,,,,24.1,24.1,*1A
$GPGSV,3,1,10,18,76,099,,10,62,346,36,25,59,097,,31,40,258,*7F
$GPGSV,3,2,10,12,29,055,,21,29,188,,32,29,338,36,14,17,312,*7C
$GPGSV,3,3,10,20,16,138,,26,10,204,,120,30,098,,122,71,129,*78
$PMGNST,05.40,2,T,544,07.3,+04843,23*48
$GPGLL,1028.6977,N,06635.7014,W,223105.214,A*26
$GPGGA,223105.21,1028.6977,N,06635.7014,W,1,03,24.1,00370,M,,,,*07
$GPRMC,223105.21,A,1028.6977,N,06635.7014,W,00.0,000.0,181116,13,W*4E
$GPGSA,A,2,10,32,25,,,,,,,,,,24.1,24.1,*1A
$GPGSV,3,1,10,18,76,099,,10,62,346,36,25,59,097,,31,40,258,*7F
$GPGSV,3,2,10,12,29,055,,21,29,188,,32,29,338,,14,17,312,*79
$GPGSV,3,3,10,20,16,138,,26,10,204,,120,30,098,,122,71,129,*78
$PMGNST,05.40,2,T,544,07.3,+04843,23*48
$GPGLL,1028.6977,N,06635.7014,W,223106.315,A*25
$GPGGA,223106.32,1028.6977,N,06635.7014,W,1,03,24.1,00370,M,,,,*06
$GPRMC,223106.32,A,1028.6977,N,06635.7014,W,00.0,000.0,181116,13,W*4F
$GPGSA,A,2,10,32,25,,,,,,,,,,24.1,24.1,*1A
$GPGSV,3,1,10,18,76,099,,10,62,346,36,25,59,097,,31,40,258,*7F
$GPGSV,3,2,10,12,29,055,,21,29,188,,32,29,338,,14,17,312,*79
$GPGSV,3,3,10,20,16,138,,26,10,204,,120,30,098,,122,71,129,*78
$PMGNST,05.40,2,T,544,07.3,+04843,23*48
$GPGLL,1028.6977,N,06635.7014,W,223107.315,A*24
$GPGGA,223107.32,1028.6977,N,06635.7014,W,1,03,24.1,00370,M,,,,*07
$GPRMC,223107.32,A,1028.6977,N,06635.7014,W,00.0,000.0,181116,13,W*4E
$GPGSA,A,2,10,32,25,,,,,,,,,,24.1,24.1,*1A
$GPGSV,3,1,10,18,76,099,,10,62,346,36,25,59,097,,31,40,258,*7F
$GPGSV,3,2,10,12,29,055,,21,29,188,,32,29,338,,14,17,312,*79
$GPGSV,3,3,10,20,16,138,,26,10,204,,120,30,098,,122,71,129,*78
$PMGNST,05.40,2,T,544,07.3,+04843,23*48
$GPGLL,1028.6977,N,06635.7014,W,223108.315,A*2B
$GPGGA,223108.32,1028.6977,N,06635.7014,W,1,03,24.1,00370,M,,,,*08
$GPRMC,223108.32,A,1028.6977,N,06635.7014,W,00.0,000.0,181116,13,W*41
$GPGSA,A,2,10,32,25,,,,,,,,,,24.1,24.1,*1A
$GPGSV,3,1,10,18,76,099,,10,62,346,36,25,59,097,,31,40,258,*7F
$GPGSV,3,2,10,12,29,055,,21,29,188,,32,29,338,,14,17,312,*79
$GPGSV,3,3,10,20,16,138,,26,10,204,,120,30,098,,122,71,129,*78
$PMGNST,05.40,2,T,538,07.2,+04843,23*42
$GPGLL,1028.6977,N,06635.7014,W,223109.311,A*2E
$GPGGA,223109.31,1028.6977,N,06635.7014,W,1,03,24.1,00370,M,,,,*0A
$GPRMC,223109.31,A,1028.6977,N,06635.7014,W,00.0,000.0,181116,13,W*43
$GPGSA,A,2,10,32,25,,,,,,,,,,24.1,24.1,*1A
$GPGSV,3,1,10,18,76,099,,10,62,346,36,25,59,097,,31,40,258,*7F
$GPGSV,3,2,10,12,29,055,,21,29,188,,32,29,338,,14,17,312,*79
$GPGSV,3,3,10,20,16,138,,26,10,204,,120,30,098,,122,71,129,*78
$PMGNST,05.40,2,T,538,07.2,+04843,23*42
$GPGLL,1028.6977,N,06635.7014,W,223109.311,A*2E
$GPGGA,223109.31,1028.6977,N,06635.7014,W,1,03,24.1,00370,M,,,,*0A
$GPRMC,223109.31,A,1028.6977,N,06635.7014,W,00.0,000.0,181116,13,W*43
$GPGSA,A,2,10,32,25,,,,,,,,,,24.1,24.1,*1A
$GPGSV,3,1,10,18,76,099,,10,62,346,36,25,59,097,36,31,40,258,*7A
$GPGSV,3,2,10,12,29,055,,21,29,188,,32,29,338,36,14,17,312,*7C
$GPGSV,3,3,10,20,16,138,,26,10,204,,120,30,098,,122,71,129,*78
$PMGNST,05.40,2,T,538,07.2,+04843,23*42
$GPGLL,1028.6966,N,06635.7024,W,223110.746,A*23
$GPGGA,223110.75,1028.6966,N,06635.7024,W,1,03,29.0,00370,M,,,,*0D
$GPRMC,223110.75,A,1028.6966,N,06635.7024,W,00.9,347.0,181116,13,W*41
$GPGSA,A,2,25,10,32,,,,,,,,,,29.0,29.0,*1A
$GPGSV,3,1,10,18,76,099,,10,62,346,39,25,59,097,44,31,40,258,*70
$GPGSV,3,2,10,12,29,055,,21,29,188,,32,29,338,36,14,17,312,*7C
$GPGSV,3,3,10,20,16,138,,26,10,204,,120,30,098,,122,71,129,*78
$PMGNST,05.40,2,T,538,07.2,+04860,00*42
$GPGLL,1028.6964,N,06635.7027,W,223112.249,A*2A
$GPGGA,223112.25,1028.6964,N,06635.7027,W,1,03,29.0,00370,M,,,,*0B
$GPRMC,223112.25,A,1028.6964,N,06635.7027,W,00.9,347.0,181116,13,W*47
$GPGSA,A,2,25,10,32,,,,,,,,,,29.0,29.0,*1A
$GPGSV,3,1,10,18,76,099,,10,62,346,38,25,59,097,41,31,40,258,*74
$GPGSV,3,2,10,12,29,055,,21,29,188,,32,29,338,36,14,17,312,*7C
$GPGSV,3,3,10,20,16,138,,26,10,204,,120,30,098,,122,71,129,*78
$PMGNST,05.40,2,T,527,07.1,+04860,10*4E
$GPGLL,1028.6958,N,06635.7031,W,223113.252,A*29
$GPGGA,223113.25,1028.6958,N,06635.7031,W,1,03,29.3,00370,M,,,,*01
$GPRMC,223113.25,A,1028.6958,N,06635.7031,W,00.0,000.0,181116,13,W*47
$GPGSA,A,2,25,10,32,,,,,,,,,,29.3,29.3,*1A
$GPGSV,3,1,10,18,76,099,,10,62,346,40,25,59,097,44,31,40,258,*7E
$GPGSV,3,2,10,12,29,055,,21,29,188,,32,29,338,36,14,17,312,*7C
$GPGSV,3,3,10,20,16,138,,26,10,204,,120,30,098,,122,71,129,*78
$PMGNST,05.40,2,T,533,07.2,+04864,00*4D
$GPGLL,1028.6962,N,06635.7026,W,223114.249,A*2B
$GPGGA,223114.25,1028.6962,N,06635.7026,W,1,03,27.0,00370,M,,,,*04
$GPRMC,223114.25,A,1028.6962,N,06635.7026,W,00.0,000.0,181116,13,W*4F
$GPGSA,A,2,25,10,32,,,,,,,,,,27.0,27.0,*1A
$GPGSV,3,1,10,18,76,099,,10,62,346,41,25,59,097,44,31,40,258,*7F
$GPGSV,3,2,10,12,29,055,,21,29,188,,32,29,338,36,14,17,312,*7C
$GPGSV,3,3,10,20,16,138,,26,10,204,,120,30,098,,122,71,129,*78
$PMGNST,05.40,2,T,533,07.2,+04866,00*4F
$GPGLL,1028.6969,N,06635.7017,W,223115.250,A*2B
$GPGGA,223115.25,1028.6969,N,06635.7017,W,1,03,27.1,00370,M,,,,*0D
$GPRMC,223115.25,A,1028.6969,N,06635.7017,W,00.0,000.0,181116,13,W*47
$GPGSA,A,2,25,10,32,,,,,,,,,,27.1,27.1,*1A
$GPGSV,3,1,10,18,76,099,,10,62,346,41,25,59,097,42,31,40,258,*79
$GPGSV,3,2,10,12,29,055,,21,29,188,,32,29,338,36,14,17,312,*7C
$GPGSV,3,3,10,20,16,138,,26,10,204,,120,30,098,,122,71,129,*78
$PMGNST,05.40,2,T,533,07.2,+04868,00*41
$GPGLL,1028.6974,N,06635.7011,W,223116.263,A*22
$GPGGA,223116.26,1028.6974,N,06635.7011,W,1,03,29.5,00370,M,,,,*0D
$GPRMC,223116.26,A,1028.6974,N,06635.7011,W,00.0,000.0,181116,13,W*4D
$GPGSA,A,2,25,10,32,,,,,,,,,,29.5,29.5,*1A
$GPGSV,3,1,10,18,76,099,,10,62,346,40,25,59,097,42,31,40,258,*78
$GPGSV,3,2,10,12,29,055,,21,29,188,,32,29,338,36,14,17,312,*7C
$GPGSV,3,3,10,20,16,138,,26,10,204,,120,30,098,,122,71,129,*78
$PMGNST,05.40,2,T,527,07.1,+04870,00*4E
$GPGLL,1028.6977,N,06635.7006,W,223117.251,A*27
$GPGGA,223117.25,1028.6977,N,06635.7006,W,1,03,29.6,00370,M,,,,*09
$GPRMC,223117.25,A,1028.6977,N,06635.7006,W,00.0,000.0,181116,13,W*4A
$GPGSA,A,2,25,10,32,,,,,,,,,,29.6,29.6,*1A
$GPGSV,3,1,10,18,76,099,,10,62,346,40,25,59,097,42,31,40,258,*78
$GPGSV,3,2,10,12,29,055,,21,29,188,,32,29,338,36,14,17,312,*7C
$GPGSV,3,3,10,20,16,138,,26,10,204,,120,30,098,,122,71,129,*78
$PMGNST,05.40,2,T,511,06.9,+04872,00*40
$GPGLL,1028.6984,N,06635.6999,W,223118.250,A*2B
$GPGGA,223118.25,1028.6984,N,06635.6999,W,1,03,29.7,00370,M,,,,*05
$GPRMC,223118.25,A,1028.6984,N,06635.6999,W,00.0,000.0,181116,13,W*47
$GPGSA,A,2,25,10,32,,,,,,,,,,29.7,29.7,*1A
$GPGSV,3,1,10,18,76,099,,10,62,346,39,25,59,097,42,31,40,258,*76
$GPGSV,3,2,10,12,29,055,,21,29,188,,32,29,338,36,14,17,312,*7C
$GPGSV,3,3,10,20,16,138,,26,10,204,,120,30,098,,122,71,129,*78
$PMGNST,05.40,2,T,527,07.1,+04874,00*4A
$GPGLL,1028.6990,N,06635.6992,W,223119.252,A*26
$GPGGA,223119.25,1028.6990,N,06635.6992,W,1,03,29.5,00370,M,,,,*08
$GPRMC,223119.25,A,1028.6990,N,06635.6992,W,00.0,000.0,181116,13,W*48
$GPGSA,A,2,25,10,32,,,,,,,,,,29.5,29.5,*1A
$GPGSV,3,1,10,18,76,099,,10,62,346,39,25,59,097,42,31,40,258,*76
$GPGSV,3,2,10,12,29,055,,21,29,188,,32,29,338,36,14,17,312,*7C
$GPGSV,3,3,10,20,16,138,,26,10,204,,120,30,098,,122,71,129,*78
$PMGNST,05.40,2,T,527,07.1,+04876,00*48
$GPGLL,1028.6990,N,06635.6992,W,223120.241,A*2E
$GPGGA,223120.24,1028.6990,N,06635.6992,W,1,03,29.5,00370,M,,,,*03
$GPRMC,223120.24,A,1028.6990,N,06635.6992,W,00.0,000.0,181116,13,W*43
$GPGSA,A,2,25,10,32,,,,,,,,,,29.5,29.5,*1A
$GPGSV,3,1,10,18,76,099,,10,62,346,39,25,59,097,42,31,40,258,*76
$GPGSV,3,2,10,12,29,055,,21,29,188,,32,29,338,36,14,17,312,*7C
$GPGSV,3,3,10,20,16,138,,26,10,204,,120,30,098,,122,71,129,*78
$PMGNST,05.40,2,T,527,07.1,+04876,10*49
$GPGLL,1028.6990,N,06635.6992,W,223121.374,A*28
$GPGGA,223121.37,1028.6990,N,06635.6992,W,1,03,29.5,00370,M,,,,*00
$GPRMC,223121.37,A,1028.6990,N,06635.6992,W,00.0,000.0,181116,13,W*40
$GPGSA,A,2,25,10,32,,,,,,,,,,29.5,29.5,*1A
$GPGSV,3,1,10,18,76,099,,10,62,346,39,25,59,097,41,31,40,258,*75
$GPGSV,3,2,10,12,29,055,,21,29,188,,32,29,338,36,14,17,312,*7C
$GPGSV,3,3,10,20,16,138,,26,10,204,,120,30,098,,122,71,129,*78
$PMGNST,05.40,2,T,527,07.1,+04876,10*49
$GPGLL,1028.6990,N,06635.6992,W,223122.331,A*2A
$GPGGA,223122.33,1028.6990,N,06635.6992,W,1,03,29.5,00370,M,,,,*07
$GPRMC,223122.33,A,1028.6990,N,06635.6992,W,00.0,000.0,181116,13,W*47
$GPGSA,A,2,25,10,32,,,,,,,,,,29.5,29.5,*1A
$GPGSV,3,1,10,18,76,099,,10,62,346,39,25,59,097,41,31,40,258,*75
$GPGSV,3,2,10,12,29,055,,21,29,188,,32,29,338,36,14,17,312,*7C
$GPGSV,3,3,10,20,16,138,,26,10,204,,120,30,098,,122,71,129,*78
$PMGNST,05.40,2,T,522,07.0,+04876,10*4D
$GPGLL,1028.6990,N,06635.6992,W,223123.358,A*24
$GPGGA,223123.36,1028.6990,N,06635.6992,W,1,03,29.5,00370,M,,,,*03
$GPRMC,223123.36,A,1028.6990,N,06635.6992,W,00.0,000.0,181116,13,W*43
$GPGSA,A,2,25,10,32,,,,,,,,,,29.5,29.5,*1A
$GPGSV,3,1,10,18,76,099,,10,62,346,38,25,59,097,41,31,40,258,*74
$GPGSV,3,2,10,12,29,055,,21,29,188,,32,29,338,36,14,17,312,*7C
$GPGSV,3,3,10,20,16,138,,26,10,204,,120,30,098,,122,71,129,*78
$PMGNST,05.40,2,T,500,06.7,+04876,10*4B
$GPGLL,1028.6990,N,06635.6992,W,223124.241,A*2A
$GPGGA,223124.24,1028.6990,N,06635.6992,W,1,03,29.5,00370,M,,,,*07
$GPRMC,223124.24,A,1028.6990,N,06635.6992,W,00.0,000.0,181116,13,W*47
$GPGSA,A,2,25,10,32,,,,,,,,,,29.5,29.5,*1A
$GPGSV,3,1,10,18,76,099,,10,62,346,38,25,59,097,40,31,40,258,*75
$GPGSV,3,2,10,12,29,055,,21,29,188,,32,29,338,36,14,17,312,*7C
$GPGSV,3,3,10,20,16,138,,26,10,204,,120,30,098,,122,71,129,*78
$PMGNST,05.40,2,T,516,06.9,+04876,10*42
$GPGLL,1028.6990,N,06635.6992,W,223125.241,A*2B
$GPGGA,223125.24,1028.6990,N,06635.6992,W,1,03,29.5,00370,M,,,,*06
$GPRMC,223125.24,A,1028.6990,N,06635.6992,W,00.0,000.0,181116,13,W*46
$GPGSA,A,2,25,10,32,,,,,,,,,,29.5,29.5,*1A
$GPGSV,3,1,10,18,76,099,,10,62,346,36,25,59,097,41,31,40,258,*7A
$GPGSV,3,2,10,12,29,055,,21,29,188,,32,29,338,36,14,17,312,*7C
$GPGSV,3,3,10,20,16,138,,26,10,204,,120,30,098,,122,71,129,*78
$PMGNST,05.40,2,T,516,06.9,+04876,10*42
$GPGLL,1028.6990,N,06635.6992,W,223125.241,A*2B
$GPGGA,223125.24,1028.6990,N,06635.6992,W,1,03,29.5,00370,M,,,,*06
$GPRMC,223125.24,A,1028.6990,N,06635.6992,W,00.0,000.0,181116,13,W*46
$GPGSA,A,2,25,10,32,,,,,,,,,,29.5,29.5,*1A
$GPGSV,3,1,10,18,76,099,,10,62,346,39,25,59,097,41,31,40,258,*75
$GPGSV,3,2,10,12,29,055,,21,29,188,,32,29,338,36,14,17,312,*7C
$GPGSV,3,3,10,20,16,138,,26,10,204,,120,30,098,,122,71,129,*78
$PMGNST,05.40,2,T,500,06.7,+04876,10*4B
$GPGLL,1028.6992,N,06635.6990,W,223127.251,A*28
$GPGGA,223127.25,1028.6992,N,06635.6990,W,1,03,29.7,00370,M,,,,*07
$GPRMC,223127.25,A,1028.6992,N,06635.6990,W,00.0,000.0,181116,13,W*45
$GPGSA,A,2,25,10,32,,,,,,,,,,29.7,29.7,*1A
$GPGSV,3,1,10,18,76,099,,10,62,346,39,25,59,097,43,31,40,258,*77
$GPGSV,3,2,10,12,29,055,,21,29,188,,32,29,338,36,14,17,312,*7C
$GPGSV,3,3,10,20,16,138,,26,10,204,,120,30,098,,122,71,129,*78
$PMGNST,05.40,2,T,516,06.9,+04893,00*48
$GPGLL,1028.6992,N,06635.6990,W,223128.242,A*25
$GPGGA,223128.24,1028.6992,N,06635.6990,W,1,03,29.7,00370,M,,,,*09
$GPRMC,223128.24,A,1028.6992,N,06635.6990,W,00.0,000.0,181116,13,W*4B
$GPGSA,A,2,25,10,32,,,,,,,,,,29.7,29.7,*1A
$GPGSV,3,1,10,18,76,099,,10,62,346,39,25,59,097,42,31,40,258,*76
$GPGSV,3,2,10,12,29,055,,21,29,188,,32,29,338,36,14,17,312,*7C
$GPGSV,3,3,10,20,16,138,,26,10,204,,120,30,098,,122,71,129,*78
$PMGNST,05.40,2,T,494,06.6,+04893,10*4D
$GPGLL,1028.6992,N,06635.6990,W,223129.253,A*24
$GPGGA,223129.25,1028.6992,N,06635.6990,W,1,03,29.7,00370,M,,,,*09
$GPRMC,223129.25,A,1028.6992,N,06635.6990,W,00.0,000.0,181116,13,W*4B
$GPGSA,A,2,25,10,32,,,,,,,,,,29.7,29.7,*1A
$GPGSV,3,1,10,18,76,099,,10,62,346,38,25,59,097,42,31,40,258,*77
$GPGSV,3,2,10,12,29,055,,21,29,188,,32,29,338,36,14,17,312,*7C
$GPGSV,3,3,10,20,16,138,,26,10,204,,120,30,098,,122,71,129,*78
$PMGNST,05.40,2,T,488,06.5,+04893,10*43
$GPGLL,1028.6992,N,06635.6990,W,223130.242,A*2C
$GPGGA,223130.24,1028.6992,N,06635.6990,W,1,03,29.7,00370,M,,,,*00
$GPRMC,223130.24,A,1028.6992,N,06635.6990,W,00.0,000.0,181116,13,W*42
$GPGSA,A,2,25,10,32,,,,,,,,,,29.7,29.7,*1A
$GPGSV,3,1,10,18,76,099,,10,62,346,38,25,59,097,41,31,40,258,*74
$GPGSV,3,2,10,12,29,055,,21,29,188,,32,29,338,36,14,17,312,*7C
$GPGSV,3,3,10,20,16,138,,26,10,204,,120,30,098,,122,71,129,*78
$PMGNST,05.40,2,T,511,06.9,+04893,10*4E
$GPGLL,1028.7002,N,06635.6980,W,223131.252,A*2C
$GPGGA,223131.25,1028.7002,N,06635.6980,W,1,03,29.7,00370,M,,,,*00
$GPRMC,223131.25,A,1028.7002,N,06635.6980,W,00.0,000.0,181116,13,W*42
$GPGSA,A,2,25,10,32,,,,,,,,,,29.7,29.7,*1A
$GPGSV,3,1,10,18,76,099,,10,62,346,39,25,59,097,42,31,40,258,*76
$GPGSV,3,2,10,12,29,055,,21,29,188,,32,29,338,36,14,17,312,*7C
$GPGSV,3,3,10,20,16,138,,26,10,204,,120,30,098,,122,71,129,*78
$PMGNST,05.40,2,T,505,06.8,+04901,00*41
$GPGLL,1028.7008,N,06635.6973,W,223132.250,A*2B
$GPGGA,223132.25,1028.7008,N,06635.6973,W,1,03,29.9,00370,M,,,,*0B
$GPRMC,223132.25,A,1028.7008,N,06635.6973,W,00.0,000.0,181116,13,W*47
$GPGSA,A,2,25,10,32,,,,,,,,,,29.9,29.9,*1A
$GPGSV,3,1,10,18,76,099,,10,62,346,39,25,59,097,41,31,40,258,*75
$GPGSV,3,2,10,12,29,055,,21,29,188,,32,29,338,36,14,17,312,*7C
$GPGSV,3,3,10,20,16,138,,26,10,204,,120,30,098,,122,71,129,*78
$PMGNST,05.40,2,T,505,06.8,+04903,00*43
$GPGLL,1028.7008,N,06635.6974,W,223133.250,A*2D
$GPGGA,223133.25,1028.7008,N,06635.6974,W,1,03,29.7,00370,M,,,,*03
$GPRMC,223133.25,A,1028.7008,N,06635.6974,W,00.0,000.0,181116,13,W*41
$GPGSA,A,2,25,10,32,,,,,,,,,,29.7,29.7,*1A
$GPGSV,3,1,10,18,76,099,,10,62,346,39,25,59,097,42,31,40,258,*76
$GPGSV,3,2,10,12,29,055,,21,29,188,,32,29,338,36,14,17,312,*7C
$GPGSV,3,3,10,20,16,138,,26,10,204,,120,30,098,,122,71,129,*78
$PMGNST,05.40,2,T,488,06.5,+04905,00*4C
$GPGLL,1028.7014,N,06635.6967,W,223134.251,A*24
$GPGGA,223134.25,1028.7014,N,06635.6967,W,1,03,29.8,00370,M,,,,*04
$GPRMC,223134.25,A,1028.7014,N,06635.6967,W,00.0,000.0,181116,13,W*49
$GPGSA,A,2,25,10,32,,,,,,,,,,29.8,29.8,*1A
$GPGSV,3,1,10,18,76,099,,10,62,346,38,25,59,097,42,31,40,258,*77
$GPGSV,3,2,10,12,29,055,,21,29,188,,32,29,338,36,14,17,312,*7C
$GPGSV,3,3,10,20,16,138,,26,10,204,,120,30,098,,122,71,129,*78
$PMGNST,05.40,2,T,500,06.7,+04907,00*4D
$GPGLL,1028.7016,N,06635.6964,W,223135.250,A*25
$GPGGA,223135.25,1028.7016,N,06635.6964,W,1,03,29.5,00370,M,,,,*09
$GPRMC,223135.25,A,1028.7016,N,06635.6964,W,00.0,000.0,181116,13,W*49
$GPGSA,A,2,25,10,32,,,,,,,,,,29.5,29.5,*1A
$GPGSV,3,1,10,18,76,099,,10,62,346,39,25,59,097,42,31,40,258,*76
$GPGSV,3,2,10,12,29,055,,21,29,188,,32,29,338,36,14,17,312,*7C
$GPGSV,3,3,10,20,16,138,,26,10,204,,120,30,098,,122,71,129,*78
$PMGNST,05.40,2,T,500,06.7,+04909,00*43
$GPGLL,1028.7019,N,06635.6961,W,223136.265,A*2A
$GPGGA,223136.27,1028.7019,N,06635.6961,W,1,03,29.4,00370,M,,,,*03
$GPRMC,223136.27,A,1028.7019,N,06635.6961,W,00.0,000.0,181116,13,W*42
$GPGSA,A,2,25,10,32,,,,,,,,,,29.4,29.4,*1A
$GPGSV,3,1,10,18,76,099,,10,62,346,38,25,59,097,42,31,40,258,*77
$GPGSV,3,2,10,12,29,055,,21,29,188,,32,29,338,36,14,17,312,*7C
$GPGSV,3,3,10,20,16,138,,26,10,204,,120,30,098,,122,71,129,*78
$PMGNST,05.40,2,T,500,06.7,+04911,00*4A
$GPGLL,1028.7015,N,06635.6963,W,223137.251,A*22
$GPGGA,223137.25,1028.7015,N,06635.6963,W,1,03,28.8,00370,M,,,,*03
$GPRMC,223137.25,A,1028.7015,N,06635.6963,W,00.0,000.0,181116,13,W*4F
$GPGSA,A,2,25,10,32,,,,,,,,,,28.8,28.8,*1A
$GPGSV,3,1,10,18,76,099,,10,62,346,38,25,59,097,43,31,40,258,*76
$GPGSV,3,2,10,12,29,055,,21,29,188,,32,29,338,36,14,17,312,*7C
$GPGSV,3,3,10,20,16,138,,26,10,204,,120,30,098,,122,71,129,*78
$PMGNST,05.40,2,T,500,06.7,+04913,00*48
$GPGLL,1028.7013,N,06635.6965,W,223138.250,A*2C
$GPGGA,223138.25,1028.7013,N,06635.6965,W,1,03,28.8,00370,M,,,,*0C
$GPRMC,223138.25,A,1028.7013,N,06635.6965,W,00.0,000.0,181116,13,W*40
$GPGSA,A,2,25,10,32,,,,,,,,,,28.8,28.8,*1A
